{
  "type": "FeatureCollection",
  "crs": {
    "type": "name",
    "properties": {
      "name": "urn:ogc:def:crs:OGC:1.3:CRS84"
    }
  },
  "features": [
    {
      "type": "Feature",
      "properties": {
        "매장명": "대전카이스트DT점",
        "전화번호": "042-361-3600",
        "주소": "대전광역시 유성구 대덕대로 535 (가정동 2-23)",
        "brand": "맥도날드"
      },
      "geometry": {
        "type": "Point",
        "coordinates": [
          127.378269581796,
          36.380530885184
        ]
      }
    },
    {
      "type": "Feature",
      "properties": {
        "매장명": "목원대점",
        "전화번호": "042-361-3800",
        "주소": "대전광역시 유성구 도안북로 81 (용계동 664-8)",
        "brand": "맥도날드"
      },
      "geometry": {
        "type": "Point",
        "coordinates": [
          127.337665692789,
          36.3303623723981
        ]
      }
    },
    {
      "type": "Feature",
      "properties": {
        "매장명": "대전터미널점",
        "전화번호": "042-331-2800",
        "주소": "대전광역시 동구 동서대로 1689 (용전동 63-3)",
        "brand": "맥도날드"
      },
      "geometry": {
        "type": "Point",
        "coordinates": [
          127.436711042049,
          36.3503349793975
        ]
      }
    },
    {
      "type": "Feature",
      "properties": {
        "매장명": "대전 센트럴 DT점",
        "전화번호": "042-342-4200",
        "주소": "대전광역시 중구 중앙로 64 (대흥동 522-1)",
        "brand": "맥도날드"
      },
      "geometry": {
        "type": "Point",
        "coordinates": [
          127.419048103895,
          36.3239981936622
        ]
      }
    },
    {
      "type": "Feature",
      "properties": {
        "매장명": "대전한남대DT점",
        "전화번호": "042-331-2700",
        "주소": "대전광역시 대덕구 한밭대로 1102 (중리동 230-15)",
        "brand": "맥도날드"
      },
      "geometry": {
        "type": "Point",
        "coordinates": [
          127.421225272122,
          36.3584116409723
        ]
      }
    },
    {
      "type": "Feature",
      "properties": {
        "매장명": "세이브존 대전점",
        "전화번호": "042-384-3700",
        "주소": "대전광역시 서구 둔산로 201 (둔산동 1809)",
        "brand": "맥도날드"
      },
      "geometry": {
        "type": "Point",
        "coordinates": [
          127.398143110467,
          36.3551065166594
        ]
      }
    },
    {
      "type": "Feature",
      "properties": {
        "매장명": "대전신탄진DT점",
        "전화번호": "042-331-2100",
        "주소": "대전광역시 대덕구 신탄진로 605 (상서동 834-4)",
        "brand": "맥도날드"
      },
      "geometry": {
        "type": "Point",
        "coordinates": [
          127.423168261774,
          36.4326909249748
        ]
      }
    },
    {
      "type": "Feature",
      "properties": {
        "매장명": "대전유천DT점",
        "전화번호": "042-331-2900",
        "주소": "대전광역시 중구 계백로 1549 (유천동 327-33)",
        "brand": "맥도날드"
      },
      "geometry": {
        "type": "Point",
        "coordinates": [
          127.392419859187,
          36.3174458098176
        ]
      }
    },
    {
      "type": "Feature",
      "properties": {
        "매장명": "대전 유성 DT점",
        "전화번호": "042-361-3200",
        "주소": "대전광역시 유성구 계룡로87번길 3 (봉명동 446-5)",
        "brand": "맥도날드"
      },
      "geometry": {
        "type": "Point",
        "coordinates": [
          127.340371883684,
          36.3543725149503
        ]
      }
    },
    {
      "type": "Feature",
      "properties": {
        "매장명": "대전가장DT점",
        "전화번호": "042-369-1600",
        "주소": "대전광역시 서구 도산로 324",
        "brand": "맥도날드"
      },
      "geometry": {
        "type": "Point",
        "coordinates": [
          127.38892799003,
          36.3343763952126
        ]
      }
    },
    {
      "type": "Feature",
      "properties": {
        "매장명": "대전가수원DT점",
        "전화번호": "042-369-1300",
        "주소": "대전광역시 서구 계백로 1124 (가수원동 655-4)",
        "brand": "맥도날드"
      },
      "geometry": {
        "type": "Point",
        "coordinates": [
          127.34836471642,
          36.3036577026668
        ]
      }
    },
    {
      "type": "Feature",
      "properties": {
        "매장명": "대전부사DT점",
        "전화번호": "042-335-5800",
        "주소": "대전광역시 중구 충무로 139 (부사동 87-14)",
        "brand": "맥도날드"
      },
      "geometry": {
        "type": "Point",
        "coordinates": [
          127.431757593277,
          36.3198152946037
        ]
      }
    }
  ]
}